[
  {
    "id": 1778409487851,
    "year": "~427-347 π.Χ.",
    "title": "Πλάτων – Η Μετοχή στις Ιδέες",
    "desc": "Ο Πλάτων εισήγαγε την έννοια της «μετοχής», υποστηρίζοντας ότι τα αισθητά πράγματα είναι «σκιές» που μετέχουν στο «όντως ον» των αιώνιων Ιδεών, με το Αγαθό ως «Ήλιο» που φωτίζει την αλήθεια.",
    "img": "https://i.ibb.co/LDN0sWGp/The-Sacred-Blueprint-page-0002.jpg",
    "location": "Αθήνα",
    "lat": 37.9838,
    "lng": 23.7275,
    "zoom": 7,
    "slides": ""
  },
  {
    "id": 1778409487852,
    "year": "~384-322 π.Χ.",
    "title": "Αριστοτέλης – Η Μετοχή στη Θεία Ευδαιμονία",
    "desc": "Ο Αριστοτέλης όρισε τον Θεό ως «πρώτον κινούν ακίνητον» και δίδαξε ότι η μετοχή στο θείον επιτυγχάνεται μέσω του «θεωρητικού βίου», ως η ύψιστη μορφή ευδαιμονίας.",
    "img": "https://i.ibb.co/PGmWDBjt/The-Sacred-Blueprint-page-0014.jpg",
    "location": "Αθήνα",
    "lat": 37.9838,
    "lng": 23.7275,
    "zoom": 7,
    "slides": ""
  },
  {
    "id": 1778409487853,
    "year": "~3ος αιώνας π.Χ.",
    "title": "Στωικισμός – Ο Λόγος ως Πυρ και η Παγκόσμια Συμπάθεια",
    "desc": "Οι Στωικοί δίδαξαν ότι ο Λόγος είναι υλική συνεκτική δύναμη που διαπερνά την κτίση μέσω «σπερματικών λόγων», και η μετοχή σημαίνει εναρμόνιση της βούλησης με την παγκόσμια νομοτέλεια.",
    "img": "https://i.ibb.co/q3Ty33Vq/The-Sacred-Blueprint-page-0005.jpg",
    "location": "Αθήνα",
    "lat": 37.9838,
    "lng": 23.7275,
    "zoom": 7,
    "slides": ""
  },
  {
    "id": 1778409487854,
    "year": "~1ος αιώνας μ.Χ.",
    "title": "Ιωάννης ο Θεολόγος – Ο Ένσαρκος Λόγος",
    "desc": "Ο Ιωάννης μετέτρεψε τον φιλοσοφικό Λόγο σε δεύτερο Πρόσωπο της Τριάδας που «σάρξ εγένετο», μεταμορφώνοντας τη μετοχή από διανοητική θεωρία σε προσωπική κοινωνία με τον Χριστό.",
    "img": "https://i.ibb.co/6RDfMcx1/The-Sacred-Blueprint-page-0013.jpg",
    "location": "Έφεσος",
    "lat": 37.9393,
    "lng": 27.3417,
    "zoom": 7,
    "slides": ""
  },
  {
    "id": 1778409487855,
    "year": "~185-254 μ.Χ.",
    "title": "Ωριγένης – Η Ιεραρχική Μετοχή των Λογικών Όντων",
    "desc": "Ο Ωριγένης δημιούργησε αιώνιο ιεραρχικό σύστημα όντων, διδάσκοντας ότι η μετοχή των ψυχών στον Λόγο είναι οντολογική τους ανάγκη και θεμελιώνοντας τη δυναμική επιστροφής στον Θεό.",
    "img": "https://i.ibb.co/V0S43ngy/The-Sacred-Blueprint-page-0012.jpg",
    "location": "Αλεξάνδρεια",
    "lat": 31.2001,
    "lng": 29.9187,
    "zoom": 7,
    "slides": ""
  },
  {
    "id": 1778409487856,
    "year": "~329-390 μ.Χ.",
    "title": "Γρηγόριος ο Θεολόγος – Ο Αποφατισμός του Φωτός",
    "desc": "Ο Γρηγόριος δίδαξε ότι ο Θεός υπερβαίνει κάθε ανθρώπινη κατάληψη και η μετοχή σε Αυτόν είναι βίωση του φωτός της θείας αποκαλύψεως, όχι διανοητική σύλληψη.",
    "img": "https://i.ibb.co/twQyyfQP/The-Sacred-Blueprint-page-0011.jpg",
    "location": "Ναζιανζός",
    "lat": 38.0167,
    "lng": 34.2167,
    "zoom": 7,
    "slides": ""
  },
  {
    "id": 1778409487857,
    "year": "~335-394 μ.Χ.",
    "title": "Γρηγόριος Νύσσης – Η Επέκταση στο Άπειρο",
    "desc": "Ο Γρηγόριος Νύσσης μεταμόρφωσε το άπειρο σε θετική ιδιότητα του Θεού και εισήγαγε την «Επέκταση» ως αιώνια κίνηση της ψυχής προς τον Θεό που γνωρίζεται μέσω των ενεργειών Του.",
    "img": "https://i.ibb.co/nNYp6P4B/The-Sacred-Blueprint-page-0006.jpg",
    "location": "Νύσσα Καππαδοκίας",
    "lat": 38.7167,
    "lng": 34.7167,
    "zoom": 7,
    "slides": ""
  },
  {
    "id": 1778409487858,
    "year": "~5ος αιώνας μ.Χ.",
    "title": "Διονύσιος Αρεοπαγίτης – Η Απορροή και η Ιεραρχία",
    "desc": "Ο Διονύσιος «εκχριστιάνισε» τον νεοπλατωνισμό διδάσκοντας ότι η μετοχή στο θείο φως επιτυγχάνεται μέσω της ιεραρχικής δομής της Εκκλησίας και των μυστηρίων.",
    "img": "https://i.ibb.co/n861J2T2/The-Sacred-Blueprint-page-0003.jpg",
    "location": "Κωνσταντινούπολη",
    "lat": 41.0082,
    "lng": 28.9784,
    "zoom": 7,
    "slides": ""
  },
  {
    "id": 1778409487859,
    "year": "~580-662 μ.Χ.",
    "title": "Μάξιμος ο Ομολογητής – Οι Λόγοι των Όντων",
    "desc": "Ο Μάξιμος ανέπτυξε τη διδασκαλία για τους «Λόγους των όντων» και δίδαξε ότι η μετοχή στον Θεό απαιτεί τη σύμπραξη της ανθρώπινης θέλησης με το θείο θέλημα εν Χριστώ.",
    "img": "https://i.ibb.co/8nJp0wwB/The-Sacred-Blueprint-page-0015.jpg",
    "location": "Κωνσταντινούπολη",
    "lat": 41.0082,
    "lng": 28.9784,
    "zoom": 7,
    "slides": ""
  },
  {
    "id": 1778409487860,
    "year": "~949-1022 μ.Χ.",
    "title": "Συμεών ο Νέος Θεολόγος – Η Εμπειρία του Ακτίστου Φωτός",
    "desc": "Ο Συμεών τόνισε ότι η μετοχή στον Θεό δεν είναι αφηρημένο δόγμα, αλλά προσωπική και συνειδητή εμπειρία του θείου άκτιστου φωτός ήδη από αυτή τη ζωή.",
    "img": "https://i.ibb.co/TqcDJYxK/The-Sacred-Blueprint-page-0008.jpg",
    "location": "Κωνσταντινούπολη",
    "lat": 41.0082,
    "lng": 28.9784,
    "zoom": 7,
    "slides": ""
  },
  {
    "id": 1778409487861,
    "year": "~1296-1357 μ.Χ.",
    "title": "Γρηγόριος Παλαμάς – Η Διάκριση Ουσίας και Ενέργειας",
    "desc": "Ο Παλαμάς συστηματοποίησε τη διάκριση μεταξύ της απρόσιτης θείας ουσίας και των μεθεκτών θείων ενεργειών, αποδεικνύοντας ότι ο άνθρωπος μετέχει πραγματικά στον Θεό μέσω του άκτιστου Θαβωρείου Φωτός.",
    "img": "https://i.ibb.co/F49ZXsfF/The-Sacred-Blueprint-page-0009.jpg",
    "location": "Άγιον Όρος",
    "lat": 40.1574,
    "lng": 24.3228,
    "zoom": 7,
    "slides": ""
  }
]